[
  {
    "id": "home-japanese-living",
    "name": "Home, Japanese Living",
    "country": "Switzerland",
    "city": "Basel",
    "address": null,
    "lat": null,
    "lng": null,
    "websiteUrl": null,
    "productUrl": null,
    "sellsOnline": false,
    "logoId": "home-japanese-living",
    "notes": "Basel retailer. Exact address and logo still need confirmation."
  },
  {
    "id": "tokoro",
    "name": "Tokoro",
    "country": "Switzerland",
    "city": "Zurich",
    "address": "Hallwylstrasse 33, 8004 Zürich",
    "lat": 47.3711155,
    "lng": 8.5283747,
    "websiteUrl": "https://tokoro.ch",
    "productUrl": "https://tokoro.ch/products/omakase-the-card-game?_pos=1&_sid=005021612&_ss=r",
    "sellsOnline": true,
    "logoId": "tokoro",
    "notes": "Japanese design, interior, tableware, stationery, and books."
  },
  {
    "id": "never-stop-reading",
    "name": "Never Stop Reading",
    "country": "Switzerland",
    "city": "Zurich",
    "address": "Spiegelgasse 18, 8001 Zürich",
    "lat": 47.3719748,
    "lng": 8.5453518,
    "websiteUrl": "https://www.neverstopreading.com",
    "productUrl": null,
    "sellsOnline": false,
    "logoId": "never-stop-reading",
    "notes": "Bookshop in Zurich."
  },
  {
    "id": "analph",
    "name": "Analph",
    "country": "Switzerland",
    "city": "Zurich",
    "address": "Strassburgstrasse 10, 8004 Zürich",
    "lat": 47.3726942,
    "lng": 8.5287625,
    "websiteUrl": "https://analph.ch",
    "productUrl": "https://analph.ch/omakase-game-sushi-game.html",
    "sellsOnline": true,
    "logoId": "analph",
    "notes": "Comic and game shop in Zurich."
  },
  {
    "id": "kamiya",
    "name": "Kamiya",
    "country": "Switzerland",
    "city": "Zurich",
    "address": "Culmannstrasse 43, 8006 Zürich",
    "lat": 47.3818759,
    "lng": 8.5474146,
    "websiteUrl": "https://kamiya.ch",
    "productUrl": null,
    "sellsOnline": false,
    "logoId": "kamiya",
    "notes": "Japanese stationery and handmade paper goods."
  },
  {
    "id": "buchhandlung-volkshaus",
    "name": "Buchhandlung Volkshaus",
    "country": "Switzerland",
    "city": "Zurich",
    "address": "Stauffacherstrasse 60, 8004 Zürich",
    "lat": 47.375496,
    "lng": 8.5271125,
    "websiteUrl": "https://shop.volkshausbuch.ch",
    "productUrl": "https://shop.volkshausbuch.ch/detail/ISBN-2240102237425/Omakase---The-Sushi-Game",
    "sellsOnline": true,
    "logoId": "buchhandlung-volkshaus",
    "notes": "Independent bookshop in Zurich."
  },
  {
    "id": "mudac",
    "name": "mudac",
    "country": "Switzerland",
    "city": "Lausanne",
    "address": "Place de la Gare 17, 1003 Lausanne",
    "lat": 46.5185536,
    "lng": 6.6235053,
    "websiteUrl": "https://mudac.ch/librairie-boutique/",
    "productUrl": null,
    "sellsOnline": false,
    "logoId": "mudac",
    "notes": "Museum shop at Plateforme 10."
  },
  {
    "id": "yugenlab",
    "name": "Yugen Lab",
    "country": "Switzerland",
    "city": null,
    "address": null,
    "lat": null,
    "lng": null,
    "websiteUrl": "https://yugenlab.com",
    "productUrl": null,
    "sellsOnline": false,
    "logoId": "yugenlab",
    "notes": "Online Japanese tableware and design shop. Exact Omakase product URL still needs confirmation."
  },
  {
    "id": "chuo",
    "name": "Chuo",
    "country": "Belgium",
    "city": "Antwerp",
    "address": "Pelikaanstraat 3/1490, 2018 Antwerp",
    "lat": 51.2171842,
    "lng": 4.4206835,
    "websiteUrl": "https://www.chuo.be",
    "productUrl": null,
    "sellsOnline": false,
    "logoId": "chuo",
    "notes": "User list said Brussels; official site lists the brick-and-mortar store in Antwerp."
  },
  {
    "id": "noi-libreria",
    "name": "Noi Libreria",
    "country": "Italy",
    "city": "Milan",
    "address": "Via delle Leghe 18, 20127 Milano",
    "lat": 45.4925179,
    "lng": 9.2172808,
    "websiteUrl": "https://www.noilibreria.it",
    "productUrl": "https://www.noilibreria.it/?s=omakase&post_type=product",
    "sellsOnline": true,
    "logoId": "noi-libreria",
    "notes": "Bookshop in Milan."
  },
  {
    "id": "love-story-of-berlin",
    "name": "Love Story of Berlin",
    "country": "Germany",
    "city": "Berlin",
    "address": "Kastanienallee 88, 10435 Berlin",
    "lat": 52.5378949,
    "lng": 13.4092451,
    "websiteUrl": null,
    "productUrl": null,
    "sellsOnline": false,
    "logoId": "love-story-of-berlin",
    "notes": "Bookshop in Berlin. Website and logo still need confirmation."
  },
  {
    "id": "alaska-libreria",
    "name": "Alaska Libreria",
    "country": "Italy",
    "city": "Milan",
    "address": "Via Gian Rinaldo Carli 39, 20161 Milano",
    "lat": 45.5227128,
    "lng": 9.1703477,
    "websiteUrl": "https://www.alaskalibreria.it",
    "productUrl": null,
    "sellsOnline": false,
    "logoId": "alaska-libreria",
    "notes": "Bookshop in Milan."
  },
  {
    "id": "anarres",
    "name": "Anarres",
    "country": "Italy",
    "city": "Milan",
    "address": "Via Pietro Crespi 11, 20127 Milano",
    "lat": 45.4930125,
    "lng": 9.2207644,
    "websiteUrl": "https://www.anarres.it",
    "productUrl": null,
    "sellsOnline": false,
    "logoId": null,
    "notes": "Milan retailer. Official website returned an error during verification."
  },
  {
    "id": "games-kobenhavn",
    "name": "GAMES København",
    "country": "Denmark",
    "city": "Copenhagen",
    "address": "Jorcks Passage, Skindergade 33, 1159 København K",
    "lat": 55.678999,
    "lng": 12.573966,
    "websiteUrl": "https://www.gamesweb.dk",
    "productUrl": "https://www.gamesweb.dk/products/omakase?_pos=1&_psq=omakase&_ss=e&_v=1.0",
    "sellsOnline": true,
    "logoId": "games-kobenhavn",
    "notes": "Game shop in Copenhagen."
  },
  {
    "id": "gudberg-nerger",
    "name": "Gudberg Nerger",
    "country": "Germany",
    "city": "Hamburg",
    "address": "Poolstrasse 8, 20355 Hamburg",
    "lat": 53.5539299,
    "lng": 9.9800435,
    "websiteUrl": "https://gudbergnerger.com",
    "productUrl": "https://gudbergnerger.com/products/omakase-card-game?_pos=1&_psq=oma&_ss=e&_v=1.0",
    "sellsOnline": true,
    "logoId": "gudberg-nerger",
    "notes": "Concept store for art, design, and indie magazines."
  },
  {
    "id": "poromagia",
    "name": "Poromagia",
    "country": "Finland",
    "city": "Helsinki",
    "address": "Hämeentie 1, 00530 Helsinki",
    "lat": 60.180074,
    "lng": 24.9512146,
    "websiteUrl": "https://www.poromagia.com",
    "productUrl": null,
    "sellsOnline": false,
    "logoId": "poromagia",
    "notes": "Game shop in Helsinki. Website blocks automated logo lookup."
  }
]
